%time,field.header.seq,field.header.stamp,field.header.frame_id,field.origin.x,field.origin.y,field.origin.z,field.dir.x,field.dir.y,field.dir.z,field.score
1647958918316131666,5304,1647958918276079416,camera_color_optical_frame,289.195465088,63.6476860046,0.0,32.6638221741,126.731689453,-153.89781189,0.0188055913895
1647958918382921714,5305,1647958918355679512,camera_color_optical_frame,289.468261719,63.1380653381,0.0,31.8448753357,129.611160278,-151.410705566,0.017573799938
1647958918451849650,5306,1647958918427161931,camera_color_optical_frame,289.46484375,62.618522644,0.0,33.9674606323,133.210968018,-147.384170532,0.0156671740115
1647958918658943171,5307,1647958918634804248,camera_color_optical_frame,289.720733643,62.347568512,0.0,36.3427314758,136.14100647,-143.744827271,0.0142824323848
1647958918911584721,5308,1647958918884153366,camera_color_optical_frame,289.99621582,62.8590393066,0.0,39.2843322754,136.999969482,-141.972229004,0.0136085348204
1647958919476847690,5309,1647958919452621459,camera_color_optical_frame,294.956542969,51.9191169739,0.0,49.7912216187,129.783905029,-145.781356812,0.0153944836929
1647958919728406576,5310,1647958919698175430,camera_color_optical_frame,288.643066406,59.5406990051,0.0,63.3420257568,121.950454712,-147.43989563,0.0180657804012
1647958920205794780,5311,1647958920176131486,camera_color_optical_frame,292.581176758,51.3860740662,0.0,42.8030967712,123.087089539,-154.420028687,0.0198006462306
1647958920714972609,5312,1647958920686052322,camera_color_optical_frame,288.938262939,53.7494544983,0.0,49.8128204346,133.213699341,-142.303695679,0.0138651588932
1647958920975053300,5313,1647958920942951440,camera_color_optical_frame,288.942626953,53.7390861511,0.0,43.0807533264,125.769340515,-151.919448853,0.0176581852138
1647958921552573077,5314,1647958921528060197,camera_color_optical_frame,237.551345825,44.0869483948,0.0,50.1112747192,122.851249695,-152.175628662,0.0168008692563
1647958921809352591,5315,1647958921779689073,camera_color_optical_frame,239.092788696,46.9491653442,0.0,52.2221298218,129.537246704,-145.080322266,0.0152207911015
1647958922410155981,5316,1647958922385447263,camera_color_optical_frame,300.160430908,129.987854004,0.0,8.44750785828,144.190002441,-139.810012817,0.0125511316583
1647958922676268254,5317,1647958922645907640,camera_color_optical_frame,299.90914917,130.246246338,0.0,11.3896045685,141.476074219,-142.62260437,0.0135429920629
1647958923251776068,5318,1647958923228028059,camera_color_optical_frame,305.897338867,134.915496826,0.0,22.172958374,124.080665588,-158.299438477,0.019570754841
1647958923503968985,5319,1647958923473409175,camera_color_optical_frame,307.186157227,134.133987427,0.0,23.0347366333,121.396606445,-160.454360962,0.0205140635371
1647958924116025572,5320,1647958924087682247,camera_color_optical_frame,297.580169678,131.286911011,0.0,-11.7738227844,158.593917847,-120.995361328,0.0100357402116
1647958924371437704,5321,1647958924341603040,camera_color_optical_frame,295.47052002,129.730712891,0.0,-5.28494930267,152.539505005,-129.806640625,0.0107629839331
1647958924997284092,5322,1647958924971837043,camera_color_optical_frame,174.605133057,74.8982772827,0.0,41.0569572449,135.33114624,-143.184783936,0.0145065328106
1647958925249304892,5323,1647958925219808101,camera_color_optical_frame,170.688049316,72.2907714844,0.0,38.6843261719,136.83416748,-142.331497192,0.0135385878384
1647958925833413274,5324,1647958925807323932,camera_color_optical_frame,146.036224365,94.813835144,0.0,106.603057861,59.2877006531,-161.79019165,0.0252005327493
1647958926094427615,5325,1647958926065019845,camera_color_optical_frame,136.583465576,98.0575866699,0.0,99.9778594971,52.7154006958,-168.843734741,0.0296538509429
1647958926694898532,5326,1647958926670372247,camera_color_optical_frame,131.327392578,159.739685059,0.0,88.9161071777,30.8131999969,-181.247177124,0.0466245599091
1647958926953831933,5327,1647958926923549890,camera_color_optical_frame,136.227432251,160.375930786,0.0,93.469329834,25.9896755219,-179.538223267,0.0427091047168
1647958927562658775,5328,1647958927533866643,camera_color_optical_frame,188.955001831,166.528152466,0.0,80.8259735107,36.595703125,-184.228744507,0.0716243386269
1647958927824596727,5329,1647958927792500019,camera_color_optical_frame,188.465805054,164.15435791,0.0,92.3008346558,37.4392089844,-177.960128784,0.0559909567237
1647958928390683824,5330,1647958928366325616,camera_color_optical_frame,185.581726074,165.214508057,0.0,85.8341217041,45.1509437561,-179.556350708,0.0574424341321
1647958928644228034,5331,1647958928611948013,camera_color_optical_frame,184.537994385,167.580963135,0.0,79.0086364746,49.3900909424,-181.777603149,0.0710905119777
1647958929223210433,5332,1647958929197882890,camera_color_optical_frame,179.000045776,167.855194092,0.0,95.8728179932,35.0820617676,-176.39289856,0.0354621559381
1647958929488755444,5333,1647958929457411766,camera_color_optical_frame,183.755889893,160.7734375,0.0,94.5624084473,48.4817657471,-173.638305664,0.054920129478
1647958930060519132,5334,1647958930035701513,camera_color_optical_frame,195.954193115,153.547332764,0.0,96.9080963135,47.5188217163,-172.496490479,0.0307433754206
1647958930320702554,5335,1647958930290694713,camera_color_optical_frame,195.969528198,155.794052124,0.0,99.1130828857,54.9812164307,-168.607803345,0.0281484145671
1647958930931857900,5336,1647958930903512716,camera_color_optical_frame,141.454238892,104.581588745,0.0,95.532333374,39.5061454773,-175.559188843,0.0344803482294
1647958931187373791,5337,1647958931158000707,camera_color_optical_frame,138.54057312,99.6822357178,0.0,95.529083252,39.4823875427,-175.567077637,0.0329318605363
1647958931783284987,5338,1647958931757988691,camera_color_optical_frame,252.655670166,44.3618164062,0.0,78.4959487915,87.6306915283,-165.308044434,0.0334034636617
1647958932045618193,5339,1647958932014230728,camera_color_optical_frame,264.898895264,39.5242080688,0.0,81.8185348511,82.1280517578,-166.648086548,0.0336149819195
1647958932646220332,5340,1647958932620853662,camera_color_optical_frame,411.652557373,112.494125366,0.0,39.2616233826,126.506195068,-152.387649536,0.018769280985
1647958932888431035,5341,1647958932859988927,camera_color_optical_frame,412.673492432,114.319343567,0.0,34.5795974731,129.336914062,-151.005325317,0.0180851817131
1647958933479125121,5342,1647958933453903675,camera_color_optical_frame,456.985595703,160.691635132,0.0,-37.8345985413,157.134231567,-117.123970032,0.00996521767229
1647958933722576988,5343,1647958933694184780,camera_color_optical_frame,457.959533691,163.010314941,0.0,-36.9184265137,149.014801025,-128.639862061,0.0119250752032
1647958934286336149,5344,1647958934257468223,camera_color_optical_frame,451.843536377,152.934692383,0.0,-37.8117980957,157.219070435,-117.00592041,0.0121247479692
1647958934538080508,5345,1647958934505849599,camera_color_optical_frame,451.306335449,153.446151733,0.0,-39.153087616,157.118438721,-116.666404724,0.0126008437946
1647958935112540167,5346,1647958935087576627,camera_color_optical_frame,453.653869629,140.416015625,0.0,-43.6042709351,155.242980957,-117.694496155,0.0126792276278
1647958935356977875,5347,1647958935327837228,camera_color_optical_frame,453.411621094,139.12651062,0.0,-47.7697753906,160.750900269,-107.246253967,0.0109128458425
1647958935950803588,5348,1647958935925855636,camera_color_optical_frame,445.546569824,138.067245483,0.0,-29.8662090302,142.252639771,-138.753204346,0.0131473280489
1647958936207109143,5349,1647958936175324440,camera_color_optical_frame,443.730957031,138.324417114,0.0,-42.7039756775,158.572631836,-113.050056458,0.00916888285428
1647958936782598230,5350,1647958936757585048,camera_color_optical_frame,437.472137451,141.215484619,0.0,-35.9569625854,153.35383606,-123.175170898,0.0103176496923
1647958937041172386,5351,1647958937009323835,camera_color_optical_frame,435.912261963,141.462081909,0.0,-43.6234588623,154.356719971,-118.971305847,0.0107121421024
1647958937623411991,5352,1647958937595906972,camera_color_optical_frame,423.887390137,135.212036133,0.0,-22.2444057465,134.892440796,-148.164611816,0.0168031994253
1647958937873679529,5353,1647958937843115329,camera_color_optical_frame,423.103088379,132.585174561,0.0,-33.2257232666,151.821273804,-126.094070435,0.0122302901
