%time,field.header.seq,field.header.stamp,field.header.frame_id,field.origin.x,field.origin.y,field.origin.z,field.dir.x,field.dir.y,field.dir.z,field.score
1647290618281592958,12908,1647290618253244400,camera_color_optical_frame,405.139556885,55.83335495,0.0,50.2522468567,134.214614868,-119.981430054,0.0130879236385
1647290618395542371,12909,1647290618370038032,camera_color_optical_frame,404.877441406,55.3279724121,0.0,48.8534164429,133.594772339,-121.379928589,0.0133699839935
1647290618603252992,12910,1647290618577212095,camera_color_optical_frame,404.88092041,55.5750808716,0.0,50.5379829407,133.472610474,-120.763069153,0.0131250778213
1647290618867616089,12911,1647290618833300113,camera_color_optical_frame,404.874389648,55.3082313538,0.0,48.7436752319,131.985824585,-123.362968445,0.0138338971883
1647290619431089048,12912,1647290619403486728,camera_color_optical_frame,403.002929688,68.3650665283,0.0,-21.3819217682,176.398635864,-46.5682525635,0.00591050833464
1647290619695433036,12913,1647290619661869049,camera_color_optical_frame,403.546844482,69.145980835,0.0,-25.39661026,174.800247192,-50.8184242249,0.00598215870559
1647290620306225619,12914,1647290620274686098,camera_color_optical_frame,409.292785645,96.527305603,0.0,-26.0845718384,171.503570557,-61.7110862732,0.00567325204611
1647290620561608227,12915,1647290620526813030,camera_color_optical_frame,408.51574707,95.7621688843,0.0,-21.9285316467,167.4740448,-74.4502639771,0.006616265513
1647290621192196812,12916,1647290621165683984,camera_color_optical_frame,399.365936279,100.487266541,0.0,-7.82392597198,165.551071167,-81.9597854614,0.00930135510862
1647290621454440110,12917,1647290621420196056,camera_color_optical_frame,399.108825684,101.001983643,0.0,-7.967420578,161.715866089,-90.03125,0.00930697284639
1647290622059894354,12918,1647290622033281326,camera_color_optical_frame,404.302398682,109.3697052,0.0,-14.2823896408,175.68321228,-52.2327232361,0.00754550239071
1647290622321838552,12919,1647290622289187431,camera_color_optical_frame,405.08303833,109.88999939,0.0,-13.2927980423,173.295684814,-60.677028656,0.00778295472264
1647290622929423519,12920,1647290622903936624,camera_color_optical_frame,407.212158203,121.383056641,0.0,-5.99736785889,167.427047729,-77.8025512695,0.00825748965144
1647290623191070457,12921,1647290623154216527,camera_color_optical_frame,407.712188721,123.71812439,0.0,-8.33295249939,155.346572876,-101.6693573,0.00982076581568
1647290623678403735,12922,1647290623637068748,camera_color_optical_frame,403.785858154,121.852348328,0.0,-3.39208221436,151.10836792,-108.811698914,0.0109724709764
1647290624262237092,12923,1647290624235118389,camera_color_optical_frame,405.365234375,122.933158875,0.0,-5.354596138,148.233062744,-113.024963379,0.0116968927905
1647290624528411487,12924,1647290624495196342,camera_color_optical_frame,405.887207031,123.989135742,0.0,-6.90171957016,147.865966797,-113.463973999,0.0109813995659
1647290625129989011,12925,1647290625102045536,camera_color_optical_frame,413.982421875,134.14225769,0.0,-10.8853607178,156.367935181,-99.6470565796,0.0101602319628
1647290625388373846,12926,1647290625357844114,camera_color_optical_frame,413.707763672,134.675735474,0.0,-15.4413042068,160.115783691,-92.0997543335,0.00967431906611
1647290625995086251,12927,1647290625968245506,camera_color_optical_frame,410.608276367,127.0938797,0.0,9.38735771179,150.078491211,-109.994468689,0.0135177075863
1647290626257897341,12928,1647290626222248554,camera_color_optical_frame,409.02746582,126.072792053,0.0,-0.0745460391045,149.644470215,-111.08808136,0.0114715686068
1647290626871090484,12929,1647290626846423625,camera_color_optical_frame,406.420654297,123.203491211,0.0,1.00126051903,151.154785156,-108.793731689,0.0107243517414
1647290627132635058,12930,1647290627091505050,camera_color_optical_frame,407.172943115,123.715019226,0.0,0.469993650913,157.900817871,-97.6053466797,0.0110518075526
1647290627727952811,12931,1647290627702060222,camera_color_optical_frame,407.174316406,131.260543823,0.0,2.10801386833,160.574951172,-92.6200408936,0.0101838745177
1647290627983386215,12932,1647290627949774026,camera_color_optical_frame,408.475494385,130.991699219,0.0,5.36832094193,160.106063843,-93.3706054688,0.0107437400147
1647290628594020944,12933,1647290628568041801,camera_color_optical_frame,405.09866333,119.005760193,0.0,10.3591871262,159.086791992,-94.8239974976,0.0111460965127
1647290628863631616,12934,1647290628826038122,camera_color_optical_frame,402.509155273,118.755950928,0.0,6.16076850891,156.371871948,-100.087013245,0.0131147811189
1647290629499729055,12935,1647290629475019931,camera_color_optical_frame,400.663330078,131.554473877,0.0,4.71079730988,154.308456421,-103.6590271,0.0146982977167
1647290629779634302,12936,1647290629745957136,camera_color_optical_frame,401.188659668,131.545959473,0.0,5.31979799271,155.319580078,-101.938873291,0.0127667654306
1647290630384668678,12937,1647290630359669685,camera_color_optical_frame,405.627380371,133.604766846,0.0,-0.123672187328,143.457824707,-119.790527344,0.0189985707402
1647290630677373370,12938,1647290630634309291,camera_color_optical_frame,406.403289795,132.607666016,0.0,-0.10667771101,144.165985107,-118.844802856,0.0162554495037
1647290631268574680,12939,1647290631242778062,camera_color_optical_frame,398.051452637,122.423622131,0.0,-10.901473999,154.854385376,-102.230567932,0.0119776986539
1647290631538183915,12940,1647290631504034996,camera_color_optical_frame,397.795349121,123.455337524,0.0,-9.77760219574,156.250305176,-99.978225708,0.0113740488887
1647290632055278445,12941,1647290632020777940,camera_color_optical_frame,411.122467041,131.0105896,0.0,7.50444793701,123.079605103,-142.498184204,0.0304040238261
1647290632596137669,12942,1647290632571326255,camera_color_optical_frame,424.159912109,133.108444214,0.0,14.9952163696,119.878913879,-144.846923828,0.0307622030377
1647290632879637708,12943,1647290632844874858,camera_color_optical_frame,431.192810059,126.06337738,0.0,28.7141952515,93.0443954468,-163.239593506,0.045433152467
1647290633529162618,12944,1647290633504019975,camera_color_optical_frame,444.917633057,98.3907775879,0.0,96.4366989136,6.46973419189,-163.713607788,0.0435789600015
1647290633804384721,12945,1647290633773470163,camera_color_optical_frame,443.608154297,98.0746307373,0.0,98.6421356201,11.8695335388,-161.912643433,0.0420851409435
1647290634346480032,12946,1647290634314949035,camera_color_optical_frame,425.66986084,97.0848770142,0.0,98.6632614136,10.9748382568,-161.968307495,0.0419104546309
1647290634676129829,12947,1647290634642428874,camera_color_optical_frame,423.376739502,101.314529419,0.0,100.013198853,10.8695678711,-161.056213379,0.0405771397054
1647290635272861372,12948,1647290635246124982,camera_color_optical_frame,420.492614746,106.50063324,0.0,34.0251731873,54.7261009216,-180.421707153,0.10466299206
1647290635534827000,12949,1647290635501248836,camera_color_optical_frame,423.373809814,102.295402527,0.0,54.3811721802,56.6738166809,-174.119384766,0.0845423340797
1647290636137829518,12950,1647290636111535072,camera_color_optical_frame,432.766326904,98.9156723022,0.0,68.9584732056,65.5729064941,-164.681350708,0.0612598210573
1647290636400935783,12951,1647290636367966413,camera_color_optical_frame,428.933349609,102.964637756,0.0,104.063659668,53.2491607666,-148.365463257,0.02955991216
1647290637002367138,12952,1647290636975488662,camera_color_optical_frame,431.216918945,100.023635864,0.0,94.616897583,89.4780426025,-135.508285522,0.0253542177379
1647290637261829912,12953,1647290637229369401,camera_color_optical_frame,431.206604004,100.683990479,0.0,79.0338821411,101.747016907,-136.971679688,0.0248864609748
1647290637875134783,12954,1647290637844648122,camera_color_optical_frame,422.064910889,122.681182861,0.0,1.04822421074,141.650878906,-122.144989014,0.0144849102944
