%time,field.header.seq,field.header.stamp,field.header.frame_id,field.origin.x,field.origin.y,field.origin.z,field.dir.x,field.dir.y,field.dir.z,field.score
1647289331898721011,7622,1647289331870330333,camera_color_optical_frame,283.729644775,108.582290649,0.0,32.6319046021,61.1142501831,178.423492432,0.0894796103239
1647289332008332786,7623,1647289331981638669,camera_color_optical_frame,281.426696777,112.75214386,0.0,75.0164794922,65.2345809937,-161.872039795,0.0333276279271
1647289332181065378,7624,1647289332154232263,camera_color_optical_frame,276.556518555,116.325569153,0.0,61.80311203,65.653175354,-167.764724731,0.040026254952
1647289332438922100,7625,1647289332406738519,camera_color_optical_frame,287.642333984,106.229187012,0.0,56.9438896179,63.8143386841,-170.435165405,0.0675365850329
1647289333013479378,7626,1647289332983429431,camera_color_optical_frame,285.696289062,111.745391846,0.0,84.0449523926,51.906085968,-162.300064087,0.0376816391945
1647289333263016432,7627,1647289333230325460,camera_color_optical_frame,287.959014893,109.182151794,0.0,87.2239303589,38.3087768555,-164.612380981,0.0426191724837
1647289333809470003,7628,1647289333783875942,camera_color_optical_frame,307.533294678,108.826530457,0.0,100.869720459,21.6905288696,159.242141724,0.0414811335504
1647289334065459948,7629,1647289334030050039,camera_color_optical_frame,303.951599121,117.642913818,0.0,84.4543838501,35.3593673706,166.927597046,0.0386888533831
1647289334611154662,7630,1647289334585060119,camera_color_optical_frame,268.57824707,140.154449463,0.0,16.2120113373,121.039741516,-143.626861572,0.0261789988726
1647289334865072994,7631,1647289334832635879,camera_color_optical_frame,267.796691895,140.413543701,0.0,18.7520561218,112.864364624,-150.496231079,0.0326940640807
1647289335409760901,7632,1647289335383927822,camera_color_optical_frame,270.151428223,143.812179565,0.0,5.35460472107,69.1227264404,178.402282715,0.109768539667
1647289335667961042,7633,1647289335632518291,camera_color_optical_frame,276.663635254,145.116470337,0.0,4.72948503494,76.2258300781,175.186752319,0.0939190760255
1647289336212759787,7634,1647289336183042526,camera_color_optical_frame,264.671295166,164.432723999,0.0,19.3411102295,105.207633972,-156.442810059,0.0615619458258
1647289336464873994,7635,1647289336430814981,camera_color_optical_frame,262.58203125,165.996261597,0.0,18.7500591278,116.472763062,-147.418640137,0.0489257834852
1647289337011325495,7636,1647289336984910011,camera_color_optical_frame,263.909118652,152.693817139,0.0,7.4783539772,127.281600952,-138.349182129,0.0268068984151
1647289337265225308,7637,1647289337230691909,camera_color_optical_frame,268.831176758,152.439346313,0.0,8.13442993164,115.014808655,-149.741256714,0.0316448807716
1647289337810438618,7638,1647289337784496545,camera_color_optical_frame,288.288391113,146.358337402,0.0,80.2157592773,65.2887954712,-159.061080933,0.028327876702
1647289338064687573,7639,1647289338031268358,camera_color_optical_frame,295.461364746,138.875244141,0.0,59.7744445801,73.5147094727,-164.942474365,0.0461364649236
1647289338611355712,7640,1647289338585817337,camera_color_optical_frame,290.263092041,144.051574707,0.0,34.5260848999,77.9569396973,-170.583145142,0.0516216158867
1647289338867955902,7641,1647289338834562301,camera_color_optical_frame,289.465881348,145.646347046,0.0,37.2116622925,91.0747528076,-162.567733765,0.0404935777187
1647289339382446219,7642,1647289339352566242,camera_color_optical_frame,290.265808105,142.23638916,0.0,41.0887985229,71.7448501587,-171.98600769,0.0605794750154
1647289339632044802,7643,1647289339599743604,camera_color_optical_frame,282.112518311,148.626068115,0.0,64.5588302612,65.5837783813,-166.641113281,0.0361896157265
1647289340145310565,7644,1647289340119973421,camera_color_optical_frame,269.101501465,152.95123291,0.0,18.9294071198,107.873397827,-154.47467041,0.0366550162435
1647289340399224859,7645,1647289340365833520,camera_color_optical_frame,269.354064941,154.241973877,0.0,19.9064655304,106.55342865,155.351196289,0.0360517725348
1647289340945036010,7646,1647289340919095516,camera_color_optical_frame,270.41229248,153.465789795,0.0,24.3432388306,107.736053467,-153.738922119,0.0344106778502
1647289341203246843,7647,1647289341169419765,camera_color_optical_frame,271.705169678,154.257049561,0.0,20.6398792267,109.197341919,-153.19593811,0.0350067354739
1647289341745161950,7648,1647289341720105171,camera_color_optical_frame,268.854797363,150.34185791,0.0,16.432762146,112.346488953,151.224227905,0.0329850614071
1647289342000846642,7649,1647289341967571020,camera_color_optical_frame,269.623413086,151.885620117,0.0,19.2807693481,111.256256104,-151.743804932,0.0330816954374
1647289342550475309,7650,1647289342520409345,camera_color_optical_frame,267.787139893,142.518051147,0.0,11.4527740479,128.017089844,-137.291931152,0.0234569422901
1647289342801852856,7651,1647289342769163846,camera_color_optical_frame,269.619445801,142.776504517,0.0,13.3374156952,125.527870178,-139.6302948,0.0209503825754
1647289343306600390,7652,1647289343280651330,camera_color_optical_frame,269.098480225,133.909729004,0.0,18.2499752045,124.515945435,-140.017990112,0.0235707983375
1647289343567930400,7653,1647289343533858299,camera_color_optical_frame,266.75378418,134.172790527,0.0,10.4898748398,120.50718689,-144.708358765,0.0272591579705
1647289344265761701,7654,1647289344240163087,camera_color_optical_frame,278.790039062,107.256019592,0.0,73.0902404785,67.2610626221,-161.929489136,0.0529605448246
1647289344526825621,7655,1647289344492907524,camera_color_optical_frame,278.508056641,108.036766052,0.0,75.5500640869,66.6252288818,-160.966949463,0.0519655868411
1647289345104860139,7656,1647289345077542543,camera_color_optical_frame,249.263366699,86.1465759277,0.0,59.5352897644,90.7536773682,-155.241394043,0.0379054360092
1647289345359061902,7657,1647289345326686143,camera_color_optical_frame,247.965454102,89.7711868286,0.0,70.6478271484,90.4186325073,-150.213821411,0.0346180908382
1647289345966932795,7658,1647289345936518192,camera_color_optical_frame,226.040969849,119.804634094,0.0,25.6672115326,136.433425903,-125.691192627,0.0164740402251
1647289346219266080,7659,1647289346186346530,camera_color_optical_frame,226.560943604,120.58380127,0.0,29.0609855652,131.193069458,-130.944442749,0.0176424905658
1647289346795518045,7660,1647289346769310951,camera_color_optical_frame,237.011199951,128.653259277,0.0,27.2833213806,90.4687652588,-165.105026245,0.045916184783
1647289347046853527,7661,1647289347013465166,camera_color_optical_frame,236.729858398,128.132171631,0.0,27.9651679993,97.2341995239,-160.657546997,0.0368862561882
1647289347600625934,7662,1647289347575697660,camera_color_optical_frame,239.35369873,123.191116333,0.0,14.3705663681,102.15675354,-159.251419067,0.0359831862152
1647289347854784794,7663,1647289347820683479,camera_color_optical_frame,235.682678223,122.943962097,0.0,24.3769950867,103.901504517,-156.630264282,0.0299120564014
1647289348395397909,7664,1647289348370572090,camera_color_optical_frame,239.075515747,122.668899536,0.0,17.01927948,106.40071106,-155.846588135,0.0279698893428
1647289348652384867,7665,1647289348622271776,camera_color_optical_frame,238.814483643,122.911277771,0.0,15.0651607513,94.3405990601,-164.438842773,0.0388279668987
1647289349207285100,7666,1647289349176078796,camera_color_optical_frame,236.206054688,121.872612,0.0,18.3780212402,97.2523345947,-162.170394897,0.0348512083292
1647289349453707253,7667,1647289349421146154,camera_color_optical_frame,235.429855347,121.104263306,0.0,20.6580276489,94.4209899902,-163.712982178,0.0391204543412
1647289350027498704,7668,1647289350001427888,camera_color_optical_frame,236.224136353,122.127830505,0.0,16.1344051361,103.819915771,-157.866439819,0.0323901213706
1647289350287514367,7669,1647289350253764629,camera_color_optical_frame,234.139221191,122.390518188,0.0,19.1560592651,111.528633118,-151.539611816,0.0265952348709
1647289350729891501,7670,1647289350703471899,camera_color_optical_frame,238.059509277,122.391998291,0.0,25.3403549194,91.9352645874,-164.549591064,0.0523412786424
1647289350991420458,7671,1647289350958698749,camera_color_optical_frame,237.280517578,123.965515137,0.0,29.6466674805,110.290313721,-150.66960144,0.0335029438138
1647289351563005390,7672,1647289351536180496,camera_color_optical_frame,233.596099854,123.442848206,0.0,30.4564304352,119.313491821,-142.659851074,0.0251060165465
