%time,field.header.seq,field.header.stamp,field.header.frame_id,field.origin.x,field.origin.y,field.origin.z,field.dir.x,field.dir.y,field.dir.z,field.score
1625078255790143726,1741,1625078255751815795,camera_color_optical_frame,316.038452148,42.2448005676,0.0,73.3288269043,113.689231873,-135.175018311,0.0193045549095
1625078255886693914,1742,1625078255849239587,camera_color_optical_frame,344.562835693,44.3461265564,0.0,59.9242630005,108.822929382,-146.462432861,0.0208008792251
1625078255972963563,1743,1625078255939729213,camera_color_optical_frame,354.509307861,54.0047912598,0.0,73.2992935181,111.776412964,-136.94871521,0.0200237017125
1625078256070030448,1744,1625078256028412342,camera_color_optical_frame,375.73727417,59.2340087891,0.0,65.3579483032,120.950920105,-132.699691772,0.0182103198022
1625078256157222367,1745,1625078256121424436,camera_color_optical_frame,393.33203125,62.8387069702,0.0,60.1397705078,122.710075378,-133.640853882,0.0174947306514
1625078256257451277,1746,1625078256214480161,camera_color_optical_frame,406.671142578,57.1501121521,0.0,45.3118972778,122.965553284,-139.724304199,0.0165449306369
1625078256347384031,1747,1625078256308143138,camera_color_optical_frame,429.393920898,63.1435775757,0.0,28.3665485382,125.050361633,-142.595016479,0.0170729141682
1625078256442963476,1748,1625078256403933763,camera_color_optical_frame,434.598632812,63.9433135986,0.0,15.7752428055,147.051559448,-119.648963928,0.0129615757614
1625078256535863584,1749,1625078256498885393,camera_color_optical_frame,438.230285645,65.5171203613,0.0,26.4319725037,144.944290161,-120.412940979,0.0123578868806
1625078256620753827,1750,1625078256586694002,camera_color_optical_frame,434.113800049,70.0141906738,0.0,44.850769043,128.081680298,-134.706344604,0.0170040354133
1625078256707068245,1751,1625078256669482707,camera_color_optical_frame,434.47644043,70.3275146484,0.0,59.7351799011,123.727401733,-132.799957275,0.0164675079286
1625078256803978983,1752,1625078256761821985,camera_color_optical_frame,434.827728271,70.6453781128,0.0,62.3644104004,123.027992249,-132.179214478,0.0174142234027
1625078256890859203,1753,1625078256855472326,camera_color_optical_frame,434.148681641,70.0065917969,0.0,72.5235290527,117.372283936,-132.13432312,0.0184352844954
1625078256987264435,1754,1625078256945197820,camera_color_optical_frame,433.829864502,69.9726486206,0.0,72.9489059448,113.546615601,-135.535125732,0.0204199496657
1625078257069327839,1755,1625078257034919261,camera_color_optical_frame,427.631164551,67.065826416,0.0,74.4317550659,110.603317261,-137.32673645,0.0217955224216
1625078257159485830,1756,1625078257120245933,camera_color_optical_frame,423.042205811,66.7260513306,0.0,72.3047485352,102.345245361,-145.440658569,0.0271722227335
1625078257253197809,1757,1625078257214552640,camera_color_optical_frame,416.194274902,64.4498291016,0.0,77.3594970703,98.5282287598,-145.47958374,0.0257488172501
1625078257351162968,1758,1625078257308911323,camera_color_optical_frame,415.21975708,62.5116577148,0.0,74.4019470215,101.522415161,-144.906661987,0.0263506174088
1625078257443429906,1759,1625078257403503417,camera_color_optical_frame,401.507232666,60.2035484314,0.0,78.9684753418,112.271957397,-132.949005127,0.0202822331339
1625078257540072731,1760,1625078257498429536,camera_color_optical_frame,390.102996826,55.9759140015,0.0,74.4517745972,113.982307434,-134.218002319,0.0196227151901
1625078257631603556,1761,1625078257594668388,camera_color_optical_frame,385.27734375,51.9123878479,0.0,39.2201461792,107.114715576,-155.352554321,0.0258472934365
1625078257723747373,1762,1625078257686004638,camera_color_optical_frame,382.391204834,51.9145317078,0.0,37.0607261658,120.385162354,-144.81628418,0.0199373736978
1625078257822056666,1763,1625078257781427145,camera_color_optical_frame,362.565582275,58.4439430237,0.0,4.5512881279,144.489044189,-124.082435608,0.0134364711121
1625078257908742475,1764,1625078257874562740,camera_color_optical_frame,360.473175049,58.4419059753,0.0,-4.1711268425,145.662979126,-122.567153931,0.012243068777
1625078257996821686,1765,1625078257960699319,camera_color_optical_frame,359.680145264,57.9434738159,0.0,2.30792188644,141.723693848,-127.634185791,0.0134098837152
1625078258092681169,1766,1625078258050594568,camera_color_optical_frame,352.910247803,62.0990333557,0.0,-12.005027771,147.576049805,-119.418174744,0.0126324463636
1625078258183732855,1767,1625078258144221782,camera_color_optical_frame,354.473632812,61.3326187134,0.0,-14.1789617538,163.189865112,-93.9211578369,0.00939447060227
1625078258282960904,1768,1625078258239076375,camera_color_optical_frame,354.192474365,61.850566864,0.0,-18.9838104248,164.333312988,-90.7175140381,0.00878087710589
1625078258378886923,1769,1625078258335217952,camera_color_optical_frame,354.721832275,73.0721740723,0.0,-11.8439426422,175.761688232,-64.5517044067,0.0088335191831
1625078258465243918,1770,1625078258429799795,camera_color_optical_frame,359.425262451,80.8941345215,0.0,-6.71145343781,159.9296875,-100.803131104,0.0115715134889
1625078258561579899,1771,1625078258521348237,camera_color_optical_frame,360.990936279,83.252822876,0.0,1.44965314865,154.393966675,-110.167312622,0.0139488400891
1625078258640043305,1772,1625078258604916334,camera_color_optical_frame,366.990875244,91.0938262939,0.0,-4.19332361221,149.053222656,-117.963539124,0.0147482128814
1625078258728820942,1773,1625078258691118478,camera_color_optical_frame,371.15057373,93.1426696777,0.0,7.13331794739,150.845977783,-115.250892639,0.0170692838728
1625078258826356235,1774,1625078258783515453,camera_color_optical_frame,373.520050049,95.2450637817,0.0,8.07785129547,151.020706177,-114.927841187,0.0167760290205
1625078258922735834,1775,1625078258882327318,camera_color_optical_frame,376.393249512,95.7634048462,0.0,8.83566951752,151.41317749,-114.292121887,0.0165710952133
1625078259027671474,1776,1625078258980339288,camera_color_optical_frame,375.618347168,96.5519104004,0.0,6.51857948303,151.809341431,-113.881538391,0.0161696765572
1625078259112119381,1777,1625078259075896263,camera_color_optical_frame,375.061401367,98.3802032471,0.0,0.981189310551,152.565979004,-112.959442139,0.0151228941977
1625078259200046457,1778,1625078259162027597,camera_color_optical_frame,374.553497314,98.923828125,0.0,0.664907991886,147.009002686,-120.851119995,0.0169857367873
1625078259292993365,1779,1625078259256380081,camera_color_optical_frame,371.67779541,102.310043335,0.0,-4.22107076645,149.674194336,-117.087989807,0.0152096906677
1625078259375943735,1780,1625078259343042135,camera_color_optical_frame,371.434936523,103.861419678,0.0,-10.4118385315,157.646774292,-104.376159668,0.0122544467449
1625078259461064673,1781,1625078259420233726,camera_color_optical_frame,373.775115967,104.652694702,0.0,-4.58047246933,160.044845581,-100.732841492,0.0143047133461
1625078259561090906,1782,1625078259516102313,camera_color_optical_frame,371.696899414,106.714958191,0.0,0.0591436028481,154.148590088,-110.557891846,0.0151231978089
1625078259661129296,1783,1625078259627291679,camera_color_optical_frame,369.612915039,110.9320755,0.0,-7.67327213287,171.461929321,-76.8855209351,0.0118727618828
1625078259763275999,1784,1625078259721389532,camera_color_optical_frame,370.927764893,111.696891785,0.0,-5.18750095367,154.751647949,-109.484375,0.0153768453747
1625078259858389642,1785,1625078259816871881,camera_color_optical_frame,371.162628174,112.22743988,0.0,-8.15796756744,140.86428833,-128.420166016,0.0169174186885
1625078259952479006,1786,1625078259916010379,camera_color_optical_frame,370.38092041,109.115982056,0.0,-9.11253833771,147.809402466,-119.381774902,0.0169640686363
1625078260041391972,1787,1625078260004588127,camera_color_optical_frame,366.467529297,110.912078857,0.0,-22.0289878845,139.673583984,-128.054290771,0.0185148455203
1625078260128867671,1788,1625078260094797372,camera_color_optical_frame,364.39175415,108.823036194,0.0,-37.5677947998,138.161071777,-125.846817017,0.0163469053805
1625078260217245887,1789,1625078260180005073,camera_color_optical_frame,363.329986572,109.344825745,0.0,-34.4757194519,139.822113037,-124.790336609,0.0168612524867
1625078260297851636,1790,1625078260262654304,camera_color_optical_frame,363.081573486,107.51374054,0.0,-37.7643814087,134.913818359,-129.628509521,0.017997123301
1625078260394213312,1791,1625078260355220079,camera_color_optical_frame,365.696899414,99.9740066528,0.0,-17.0889072418,164.320648193,-91.1593017578,0.0147967962548
1625078260493732733,1792,1625078260452814340,camera_color_optical_frame,370.864471436,100.034194946,0.0,-60.7314987183,159.199401855,-79.8913955688,0.00989796966314
1625078260589212232,1793,1625078260547075986,camera_color_optical_frame,371.169372559,99.7012786865,0.0,-63.9528465271,157.880218506,-80.0066757202,0.00996343512088
1625078260679006591,1794,1625078260638391733,camera_color_optical_frame,369.854827881,99.354057312,0.0,-68.4478530884,150.546539307,-90.8179244995,0.0114582572132
1625078260770178757,1795,1625078260734935998,camera_color_optical_frame,358.457122803,105.558853149,0.0,-80.4536132812,116.153251648,128.182403564,0.022518787533
1625078260864649679,1796,1625078260827798604,camera_color_optical_frame,355.503051758,106.547607422,0.0,-75.6874847412,126.190704346,120.664855957,0.0181927699596
1625078260961543454,1797,1625078260920075893,camera_color_optical_frame,352.580078125,106.543067932,0.0,-70.7772674561,130.911071777,118.372932434,0.0175421964377
1625078261051795892,1798,1625078261013365745,camera_color_optical_frame,348.987854004,106.874420166,0.0,-77.6494674683,128.2527771,116.813079834,0.0178459342569
1625078261135569998,1799,1625078261101811885,camera_color_optical_frame,347.311126709,108.185310364,0.0,-77.4947967529,120.022140503,126.238288879,0.0211009997874
1625078261233666181,1800,1625078261189114809,camera_color_optical_frame,343.11328125,110.444709778,0.0,-71.8917236328,133.893508911,113.845901489,0.0166041981429
1625078261317422597,1801,1625078261275910139,camera_color_optical_frame,334.310302734,109.489059448,0.0,-70.9089889526,137.685455322,109.431793213,0.0150359403342
1625078261417575671,1802,1625078261375239849,camera_color_optical_frame,336.266540527,108.834602356,0.0,-62.9031906128,140.922668457,-110.285888672,0.0146317603067
1625078261511047602,1803,1625078261473851442,camera_color_optical_frame,366.932861328,110.783157349,0.0,-63.2594833374,115.160255432,139.3671875,0.0264338310808
1625078261602116548,1804,1625078261565050363,camera_color_optical_frame,372.135253906,111.768737793,0.0,-62.2789802551,123.458091736,131.778900146,0.0216453298926
1625078261695217011,1805,1625078261659693479,camera_color_optical_frame,382.931671143,112.096580505,0.0,-60.1071357727,121.891738892,134.484268188,0.0225395429879
1625078261789412047,1806,1625078261750404119,camera_color_optical_frame,384.560974121,111.757835388,0.0,-60.6007041931,131.55670166,123.71660614,0.0186211932451
1625078261869948879,1807,1625078261836108207,camera_color_optical_frame,389.764221191,110.454940796,0.0,-70.3448257446,123.743400574,126.894599915,0.0213163960725
1625078261967609106,1808,1625078261925722360,camera_color_optical_frame,393.353759766,111.449447632,0.0,-59.3286972046,138.122650146,116.24471283,0.0164702627808
1625078262052465393,1809,1625078262015066862,camera_color_optical_frame,394.656188965,110.464820862,0.0,-66.7032928467,137.691558838,112.315338135,0.0161751378328
1625078262142888223,1810,1625078262106729507,camera_color_optical_frame,396.941925049,113.091896057,0.0,-66.7676467896,124.977508545,127.693351746,0.0205102991313
1625078262231983496,1811,1625078262196352243,camera_color_optical_frame,398.916442871,115.351959229,0.0,-62.6545143127,126.366516113,-128.485794067,0.0198321603239
1625078262328054818,1812,1625078262292136430,camera_color_optical_frame,398.598937988,116.334335327,0.0,-62.6552200317,127.255020142,-127.510047913,0.0190680585802
1625078262423563060,1813,1625078262383901357,camera_color_optical_frame,401.178588867,117.939247131,0.0,-58.7565307617,124.866210938,-132.100830078,0.021256742999
1625078262524741044,1814,1625078262478546857,camera_color_optical_frame,400.844329834,118.273925781,0.0,-61.6623535156,121.739318848,133.855621338,0.0228495933115
1625078262618032808,1815,1625078262583256483,camera_color_optical_frame,376.389587402,125.773117065,0.0,-59.9933052063,131.303314209,124.341308594,0.0186284519732
1625078262708930590,1816,1625078262666309595,camera_color_optical_frame,371.173217773,125.159667969,0.0,-73.3704223633,127.963394165,120.181053162,0.0175671987236
1625078262797450261,1817,1625078262760644435,camera_color_optical_frame,373.386291504,124.503845215,0.0,-79.568397522,110.47895813,134.210998535,0.0299617797136
1625078262885758906,1818,1625078262852090835,camera_color_optical_frame,368.915740967,122.855911255,0.0,-59.7875976562,80.6681900024,165.471481323,0.0468140728772
1625078262978552043,1819,1625078262942638874,camera_color_optical_frame,375.079833984,117.532104492,0.0,-57.3973045349,55.2280387878,177.544052124,0.09604447335
1625078263065541045,1820,1625078263030373573,camera_color_optical_frame,390.102478027,119.921859741,0.0,-11.762963295,58.0237731934,186.193740845,0.126401111484
1625078263164372298,1821,1625078263122642278,camera_color_optical_frame,390.746185303,120.571098328,0.0,-6.32019758224,46.6709289551,189.984619141,0.162207454443
1625078263243248996,1822,1625078263206624269,camera_color_optical_frame,390.109619141,120.586257935,0.0,-19.4933567047,42.480884552,190.082290649,0.174498870969
1625078263332247743,1823,1625078263296769380,camera_color_optical_frame,396.945922852,123.520812988,0.0,-29.1136379242,21.5478553772,192.609085083,0.209027856588
1625078263418771165,1824,1625078263379608869,camera_color_optical_frame,374.431762695,118.932876587,0.0,22.649477005,67.2027893066,181.602233887,0.149083599448
1625078263506292428,1825,1625078263468020200,camera_color_optical_frame,389.4559021,115.35823822,0.0,-11.0344467163,53.5890808105,187.709762573,0.116914100945
1625078263601986476,1826,1625078263564295768,camera_color_optical_frame,375.959899902,120.126853943,0.0,2.77616405487,6.32011938095,196.211898804,0.31215518713
1625078263856483912,1827,1625078263814568042,camera_color_optical_frame,359.849151611,108.842796326,0.0,37.9688720703,75.9553604126,174.820022583,0.117617867887
1625078263950307263,1828,1625078263910100221,camera_color_optical_frame,370.738067627,111.867324829,0.0,6.89030265808,14.3908834457,195.626754761,0.284869194031
1625078264046113606,1829,1625078264004910707,camera_color_optical_frame,361.577636719,101.878448486,0.0,32.4959526062,78.5079040527,174.792694092,0.119578413665
1625078264149923223,1830,1625078264111711978,camera_color_optical_frame,395.07723999,36.6260032654,0.0,-82.1944503784,-68.5032730103,160.830490112,0.0739617273211
1625078264242116211,1831,1625078264204153776,camera_color_optical_frame,397.706756592,36.173286438,0.0,-86.084815979,-78.5054855347,153.335540771,0.0726373642683
1625078264339486919,1832,1625078264299118757,camera_color_optical_frame,399.020812988,36.1852798462,0.0,-90.5428771973,-71.4983596802,154.285293579,0.0670318678021
1625078264431054216,1833,1625078264397137165,camera_color_optical_frame,397.709320068,37.9110221863,0.0,-101.755706787,-55.1223220825,153.98815918,0.0548042915761
1625078264535722949,1834,1625078264498697042,camera_color_optical_frame,397.678344727,44.424407959,0.0,-111.077735901,-45.4389266968,150.309509277,0.0470273569226
1625078264632934340,1835,1625078264592031717,camera_color_optical_frame,392.937927246,49.6426734924,0.0,-125.236450195,-28.1066017151,142.471054077,0.0369467586279
1625078264726490377,1836,1625078264689387798,camera_color_optical_frame,392.068847656,50.0669364929,0.0,-125.596130371,-23.6869449615,143.009338379,0.0362782925367
1625078264817914719,1837,1625078264779397726,camera_color_optical_frame,393.358886719,53.9884414673,0.0,-127.749801636,-10.3722362518,142.65196228,0.0340920127928
1625078264906897694,1838,1625078264871128559,camera_color_optical_frame,388.451538086,54.6496734619,0.0,-131.595016479,1.90037059784,139.139556885,0.0331742428243
1625078265000208418,1839,1625078264963100194,camera_color_optical_frame,390.428710938,60.5327224731,0.0,-136.687866211,31.9723205566,129.295089722,0.0287237446755
1625078265103882923,1840,1625078265062390089,camera_color_optical_frame,388.121887207,75.4193878174,0.0,-35.5112190247,166.865081787,-79.388885498,0.0123149165884
1625078265200709100,1841,1625078265158892631,camera_color_optical_frame,387.346252441,73.5845489502,0.0,-22.5312347412,168.49798584,-80.8121414185,0.0127115966752
1625078265296199736,1842,1625078265254423141,camera_color_optical_frame,394.012634277,78.4604492188,0.0,-46.1052017212,158.214996338,-91.9798812866,0.0108605036512
1625078265392080550,1843,1625078265349928140,camera_color_optical_frame,383.962280273,71.4879837036,0.0,-15.9132518768,167.322555542,-85.1462783813,0.0120864361525
1625078265501199241,1844,1625078265459625482,camera_color_optical_frame,394.965301514,73.9279251099,0.0,-34.9831924438,149.919509888,-110.86869812,0.013740863651
1625078265592818915,1845,1625078265553710222,camera_color_optical_frame,376.643890381,66.7937011719,0.0,-21.4781742096,161.257263184,-96.0602111816,0.0117139741778
1625078265686161523,1846,1625078265649432182,camera_color_optical_frame,383.217102051,68.040222168,0.0,-42.1283683777,151.700119019,-105.291404724,0.0121007962152
1625078265778898481,1847,1625078265740966320,camera_color_optical_frame,372.487030029,62.8810882568,0.0,-20.7305164337,173.110137939,-69.7936706543,0.0105045055971
1625078265871926025,1848,1625078265831462144,camera_color_optical_frame,368.540863037,60.0098953247,0.0,-16.8175678253,174.017211914,-68.4475326538,0.0110533349216
1625078266071749552,1849,1625078265922398090,camera_color_optical_frame,368.017791748,60.2703475952,0.0,-15.1623859406,167.368087769,-85.1989364624,0.0117356823757
1625078266127530759,1850,1625078266084119081,camera_color_optical_frame,380.29598999,66.4191970825,0.0,-40.2031288147,161.711044312,-88.2350234985,0.0104571068659
1625078266219984486,1851,1625078266178218126,camera_color_optical_frame,384.556915283,68.3487243652,0.0,-43.8373374939,141.19241333,-119.723068237,0.0132026998326
1625078266321499030,1852,1625078266283712625,camera_color_optical_frame,394.99911499,69.0162200928,0.0,-46.7255020142,160.128295898,-87.8726959229,0.0100142713636
1625078266423903847,1853,1625078266388156890,camera_color_optical_frame,395.981140137,62.8774185181,0.0,-31.938993454,174.990707397,-59.0904884338,0.00983300060034
1625078266517965119,1854,1625078266478072166,camera_color_optical_frame,404.316497803,63.4061660767,0.0,-35.7970275879,178.565856934,-42.4446792603,0.00853371433914
1625078266619867511,1855,1625078266584982633,camera_color_optical_frame,417.179870605,68.7075042725,0.0,-57.071975708,163.8697052,-72.0311126709,0.00801758561283
1625078266704618644,1856,1625078266667729377,camera_color_optical_frame,411.655639648,60.776222229,0.0,-45.2458648682,183.94758606,-0.0,0.00830817036331
1625078266803047532,1857,1625078266760860681,camera_color_optical_frame,411.643005371,58.1900520325,0.0,-48.0069274902,178.913421631,-23.0239486694,0.00861757062376
1625078266893614587,1858,1625078266856069326,camera_color_optical_frame,411.378326416,57.9297218323,0.0,-54.5129776001,188.503707886,-0.0,0.00744535354897
1625078266987669913,1859,1625078266946336984,camera_color_optical_frame,411.885284424,56.3736152649,0.0,-49.63256073,171.020477295,-58.4348258972,0.0102838221937
1625078267073545290,1860,1625078267038774728,camera_color_optical_frame,407.967163086,56.1104621887,0.0,-51.7564964294,170.897888184,-56.7667427063,0.00853495113552
1625078267162982564,1861,1625078267125813722,camera_color_optical_frame,405.098358154,54.01146698,0.0,-35.6728057861,153.834274292,-104.500190735,0.0102829011157
1625078267254979043,1862,1625078267221586465,camera_color_optical_frame,400.661407471,51.661945343,0.0,-28.1720428467,142.588928223,-123.062614441,0.0139779560268
1625078267345241930,1863,1625078267308634042,camera_color_optical_frame,397.255554199,52.1820487976,0.0,-23.8139801025,136.509048462,-131.436843872,0.0170422680676
1625078267438392548,1864,1625078267400774955,camera_color_optical_frame,395.436401367,51.4090423584,0.0,-22.749502182,141.174118042,-126.076194763,0.0143697075546
1625078267537239369,1865,1625078267498125791,camera_color_optical_frame,398.56427002,54.3552131653,0.0,-36.9417648315,139.669387817,-124.196533203,0.013653030619
1625078267623248533,1866,1625078267587524652,camera_color_optical_frame,393.890533447,44.367023468,0.0,-8.65037345886,140.78477478,-128.481048584,0.0136048048735
1625078267711973463,1867,1625078267674133300,camera_color_optical_frame,397.0184021,40.1922187805,0.0,6.34641265869,142.344192505,-126.714065552,0.013011126779
1625078267802892637,1868,1625078267764231681,camera_color_optical_frame,409.668701172,36.3774986267,0.0,90.8868255615,77.6933822632,-150.700744629,0.0343652404845
1625078267899792170,1869,1625078267858192443,camera_color_optical_frame,414.233947754,28.9156150818,0.0,99.7509918213,79.8645935059,-143.035858154,0.0226740986109
1625078267988996161,1870,1625078267953073740,camera_color_optical_frame,423.066772461,23.013835907,0.0,108.583526611,43.5405807495,152.92868042,0.0238665770739
1625078268087511488,1871,1625078268045557737,camera_color_optical_frame,427.939941406,18.6264953613,0.0,110.708580017,25.8751869202,155.658477783,0.0297852195799
1625078268176813933,1872,1625078268141565799,camera_color_optical_frame,429.464691162,19.623003006,0.0,118.598243713,8.80040454865,151.264678955,0.0264987330884
1625078268272927317,1873,1625078268231587409,camera_color_optical_frame,430.315429688,19.6114864349,0.0,116.504867554,8.81659793854,153.055587769,0.0278593301773
1625078268366652695,1874,1625078268329817295,camera_color_optical_frame,420.776306152,14.486166954,0.0,79.4678421021,-9.1009016037,177.377410889,0.0623920597136
1625078268461964712,1875,1625078268422258615,camera_color_optical_frame,432.056335449,13.9709606171,0.0,107.407447815,-4.56526470184,160.456039429,0.0333304330707
1625078268556013682,1876,1625078268517930269,camera_color_optical_frame,430.788848877,14.0034427643,0.0,110.164115906,-5.14914226532,158.351791382,0.031163033098
1625078268645910604,1877,1625078268607763528,camera_color_optical_frame,430.357940674,12.6582889557,0.0,104.003593445,-6.16812419891,162.863235474,0.0358904115856
1625078268736650055,1878,1625078268701615810,camera_color_optical_frame,429.892089844,13.5234689713,0.0,108.291023254,-4.60657787323,159.795318604,0.0326352864504
1625078268825375430,1879,1625078268790903806,camera_color_optical_frame,422.698303223,19.383228302,0.0,122.178649902,4.92749881744,148.272384644,0.0239290632308
1625078268918375974,1880,1625078268880567312,camera_color_optical_frame,419.442382812,18.1295528412,0.0,123.68762207,15.2021045685,146.097381592,0.0244609769434
1625078269013145718,1881,1625078268973121881,camera_color_optical_frame,421.668487549,17.0309963226,0.0,119.331237793,19.0336532593,149.573242188,0.0269522629678
1625078269101420066,1882,1625078269068582773,camera_color_optical_frame,423.03527832,14.0165071487,0.0,107.16960907,43.0543556213,154.181213379,0.0246013086289
1625078269204177184,1883,1625078269164516925,camera_color_optical_frame,422.044311523,12.4185609818,0.0,111.619934082,35.6528778076,152.769302368,0.023785514757
1625078269302621012,1884,1625078269257201194,camera_color_optical_frame,421.390930176,13.0639076233,0.0,108.121025085,39.3195152283,154.550247192,0.023286793381
1625078269396412240,1885,1625078269358535766,camera_color_optical_frame,417.174621582,13.050163269,0.0,111.028533936,43.0234947205,151.13508606,0.0238994900137
1625078269492276454,1886,1625078269453301191,camera_color_optical_frame,416.548583984,13.0718755722,0.0,111.065124512,43.5624923706,150.93409729,0.0232578255236
1625078269588879489,1887,1625078269546929121,camera_color_optical_frame,416.865936279,12.7437992096,0.0,111.112205505,41.0372886658,-151.678009033,0.0247048586607
1625078269685241555,1888,1625078269649361610,camera_color_optical_frame,405.112701416,20.0905036926,0.0,132.749160767,42.3151168823,130.544082642,0.0215101968497
1625078269788135998,1889,1625078269748331785,camera_color_optical_frame,413.902709961,15.5114841461,0.0,105.946891785,58.0764350891,-149.590316772,0.0245748944581
1625078269875120808,1890,1625078269839003324,camera_color_optical_frame,420.095855713,13.6969537735,0.0,113.761734009,43.8146247864,-148.609970093,0.0234054848552
1625078269972300195,1891,1625078269929934024,camera_color_optical_frame,421.735870361,13.706536293,0.0,111.072952271,41.0611877441,151.702697754,0.0229207742959
1625078270068723139,1892,1625078270026602029,camera_color_optical_frame,426.655944824,12.7348308563,0.0,111.435974121,37.5000495911,152.427688599,0.0245276559144
1625078270154345215,1893,1625078270117787361,camera_color_optical_frame,442.943115234,14.3630275726,0.0,109.291015625,42.533821106,152.683990479,0.0241610500962
1625078270242492134,1894,1625078270205811977,camera_color_optical_frame,445.254577637,13.070605278,0.0,108.697418213,41.8836669922,153.351211548,0.0233685132116
1625078270335937976,1895,1625078270300502300,camera_color_optical_frame,463.167938232,12.3943681717,0.0,117.349708557,32.1142120361,148.830413818,0.023268263787
1625078270435959165,1896,1625078270396761417,camera_color_optical_frame,467.770141602,14.8586139679,0.0,107.474700928,50.0621185303,151.579193115,0.0244415141642
1625078270533523351,1897,1625078270491747856,camera_color_optical_frame,473.6534729,15.1822147369,0.0,109.555511475,50.9022293091,149.605758667,0.0225300863385
1625078270617694711,1898,1625078270580759763,camera_color_optical_frame,475.273193359,15.3378725052,0.0,105.852996826,50.9735717773,152.504241943,0.0226727928966
1625078270705985963,1899,1625078270670115947,camera_color_optical_frame,477.314910889,25.3161201477,0.0,124.557502747,38.9394493103,140.289535522,0.0270324181765
1625078270800403488,1900,1625078270758179664,camera_color_optical_frame,481.250061035,28.7447967529,0.0,128.417755127,38.4081573486,136.545379639,0.0244933888316
1625078270879383818,1901,1625078270844065189,camera_color_optical_frame,493.519378662,25.9367370605,0.0,105.605476379,52.2543296814,152.213806152,0.0250332131982
1625078270973256739,1902,1625078270932748556,camera_color_optical_frame,496.476196289,28.2100543976,0.0,104.643028259,47.2070465088,154.756271362,0.0255111679435
1625078271064634716,1903,1625078271025663137,camera_color_optical_frame,500.039337158,29.2139549255,0.0,96.8442230225,52.808631897,158.334609985,0.0246010925621
1625078271170167099,1904,1625078271132544517,camera_color_optical_frame,502.332000732,29.2049865723,0.0,102.815917969,46.3863792419,156.379699707,0.0267868041992
1625078271260564963,1905,1625078271222056865,camera_color_optical_frame,503.309387207,29.5663757324,0.0,101.201828003,48.64427948,-156.785644531,0.028994506225
1625078271347445209,1906,1625078271309562683,camera_color_optical_frame,503.939666748,30.5345687866,0.0,99.500038147,50.601600647,-157.305267334,0.03114409931
1625078271441888380,1907,1625078271405232191,camera_color_optical_frame,502.660339355,30.834444046,0.0,96.8917999268,54.2686424255,-157.754272461,0.0286559220403
1625078271537503455,1908,1625078271501738786,camera_color_optical_frame,499.402770996,29.8858203888,0.0,91.3444976807,61.9844779968,-158.270431519,0.0263976063579
1625078271624848835,1909,1625078271585283041,camera_color_optical_frame,495.810241699,28.5428276062,0.0,91.0044937134,63.8871994019,-157.647888184,0.0287193115801
1625078271736235883,1910,1625078271695876836,camera_color_optical_frame,491.254364014,26.296667099,0.0,88.2541275024,72.6723937988,-155.144561768,0.0287636965513
1625078271827959917,1911,1625078271790582180,camera_color_optical_frame,488.27935791,24.0069141388,0.0,88.8493499756,76.4688644409,-152.727371216,0.0232373271137
1625078271925796073,1912,1625078271888293981,camera_color_optical_frame,481.15020752,22.6766376495,0.0,93.8423156738,73.9503707886,-150.780273438,0.0244220104069
1625078272026582080,1913,1625078271990051031,camera_color_optical_frame,471.654571533,22.037858963,0.0,86.9886474609,79.3947525024,-152.259231567,0.0280625261366
1625078272114975765,1914,1625078272078122138,camera_color_optical_frame,476.026550293,22.6963806152,0.0,2.61016511917,31.5802307129,-193.492385864,0.109956741333
1625078272209566454,1915,1625078272171644687,camera_color_optical_frame,448.480407715,15.0147628784,0.0,67.6999893188,91.2826080322,-155.694458008,0.0317088663578
1625078272301310674,1916,1625078272261797428,camera_color_optical_frame,430.352294922,14.1859407425,0.0,109.973304749,70.3241958618,140.25491333,0.0383160971105
1625078272386429257,1917,1625078272350178718,camera_color_optical_frame,430.234924316,7.3340845108,0.0,44.5841636658,34.1019477844,-187.245391846,0.137947127223
1625078272473168833,1918,1625078272438514471,camera_color_optical_frame,426.441986084,7.89297580719,0.0,10.8555021286,20.5891819,-194.811752319,0.181922137737
1625078272564697010,1919,1625078272527449131,camera_color_optical_frame,399.539367676,6.52905368805,0.0,-38.6909141541,42.6266937256,186.761505127,0.135671466589
1625078272663871355,1920,1625078272625490903,camera_color_optical_frame,377.036682129,3.58459353447,0.0,-42.7565841675,21.1252555847,189.820419312,0.157390341163
1625078272762524576,1921,1625078272722058534,camera_color_optical_frame,358.117706299,3.73981523514,0.0,-50.2570266724,19.5932197571,187.957183838,0.110534541309
1625078272851957357,1922,1625078272812799215,camera_color_optical_frame,343.31628418,3.73945903778,0.0,-59.9398231506,28.2126235962,183.54574585,0.088805526495
1625078272948028604,1923,1625078272908876895,camera_color_optical_frame,335.923736572,3.7368452549,0.0,-69.6982116699,37.5311546326,177.787780762,0.0690013766289
1625078273040149624,1924,1625078273003552436,camera_color_optical_frame,344.43371582,3.73255443573,0.0,-62.0380172729,32.6036949158,181.960327148,0.0799849629402
1625078273124835895,1925,1625078273089618444,camera_color_optical_frame,346.993713379,3.73266077042,0.0,-64.8652572632,35.1092300415,180.344192505,0.0740208625793
1625078273213431371,1926,1625078273174662828,camera_color_optical_frame,346.404418945,3.73073029518,0.0,-68.1900100708,37.376209259,178.470687866,0.06812466681
1625078273308404291,1927,1625078273271198034,camera_color_optical_frame,343.747558594,3.73678302765,0.0,-60.2452087402,29.2284164429,183.258621216,0.0874536633492
1625078273400397785,1928,1625078273364139080,camera_color_optical_frame,346.053588867,3.58255028725,0.0,-65.1208877563,30.4010009766,181.187652588,0.0980447381735
1625078273503222815,1929,1625078273459789752,camera_color_optical_frame,360.412322998,6.53041648865,0.0,-51.8323364258,35.3854827881,-184.899078369,0.136961787939
1625078273588692955,1930,1625078273551200151,camera_color_optical_frame,370.194213867,7.49432992935,0.0,-48.0570259094,50.0544166565,-182.25479126,0.114268027246
1625078273680633088,1931,1625078273643604993,camera_color_optical_frame,373.775726318,7.82074022293,0.0,-40.2223510742,62.1760215759,-180.210403442,0.0981692895293
1625078273768954555,1932,1625078273736057519,camera_color_optical_frame,376.08203125,8.31178092957,0.0,-35.1608772278,69.2312011719,-178.525344849,0.0901783779263
1625078273860406425,1933,1625078273826726436,camera_color_optical_frame,373.246185303,7.65837478638,0.0,-24.9407844543,90.7285766602,-169.533752441,0.0623466894031
1625078273945879099,1934,1625078273912805557,camera_color_optical_frame,375.123962402,7.78479623795,0.0,-23.1156044006,80.6224975586,-175.378585815,0.0761225298047
1625078274040294793,1935,1625078274001149415,camera_color_optical_frame,378.218444824,8.03104400635,0.0,-1.76064586639,78.0355300903,-178.328491211,0.0735848098993
1625078274138046528,1936,1625078274096479892,camera_color_optical_frame,381.091308594,8.04451847076,0.0,7.87934684753,84.6435699463,-174.770050049,0.0633138492703
1625078274239928377,1937,1625078274192894220,camera_color_optical_frame,387.361480713,7.79208183289,0.0,22.1190280914,68.3033599854,-181.219314575,0.0796477049589
1625078274325423694,1938,1625078274285124063,camera_color_optical_frame,388.664031982,8.03289985657,0.0,22.2490844727,58.0827102661,-185.109008789,0.0925411805511
1625078274420038142,1939,1625078274385848283,camera_color_optical_frame,419.90411377,10.6904687881,0.0,58.0365447998,63.5111999512,174.213485718,0.082674972713
1625078274513288827,1940,1625078274476950168,camera_color_optical_frame,417.721405029,14.2010240555,0.0,113.554611206,71.4144515991,136.430236816,0.0385719053447
1625078274604170131,1941,1625078274566209793,camera_color_optical_frame,419.02130127,14.6340246201,0.0,112.27507019,74.6141433716,135.704315186,0.0352667942643
1625078274692044931,1942,1625078274655549287,camera_color_optical_frame,427.933441162,13.3791465759,0.0,65.129737854,85.0827484131,-160.719085693,0.036271288991
1625078274778138177,1943,1625078274742785692,camera_color_optical_frame,426.630554199,14.3646249771,0.0,55.6011352539,79.9423522949,-167.467132568,0.0422394424677
1625078274878587796,1944,1625078274833760976,camera_color_optical_frame,416.412231445,15.0710687637,0.0,106.008720398,87.964515686,132.386947632,0.0271138418466
1625078274974025217,1945,1625078274929989337,camera_color_optical_frame,426.318115234,11.9293966293,0.0,66.7513809204,89.385383606,-157.359100342,0.0340331532061
1625078275070437895,1946,1625078275026536941,camera_color_optical_frame,425.641052246,11.9093780518,0.0,60.0064811707,79.5551834106,-165.979980469,0.0450060255826
1625078275161392205,1947,1625078275125352144,camera_color_optical_frame,419.434783936,10.9348745346,0.0,44.7965087891,42.2905197144,-185.328567505,0.134278863668
1625078275252060851,1948,1625078275215459585,camera_color_optical_frame,416.857574463,11.3591089249,0.0,40.5930709839,47.1951904297,-185.089370728,0.124627515674
1625078275345825451,1949,1625078275308775663,camera_color_optical_frame,415.096893311,11.3819999695,0.0,35.519569397,47.2497329712,-186.226318359,0.129926413298
1625078275436803065,1950,1625078275400374174,camera_color_optical_frame,412.425720215,10.6736707687,0.0,20.4980945587,85.0474090576,-173.41242981,0.0587753914297
