%time,field.header.seq,field.header.stamp,field.header.frame_id,field.origin.x,field.origin.y,field.origin.z,field.dir.x,field.dir.y,field.dir.z,field.score
1626204432977853997,986,1626204432940420627,camera_color_optical_frame,590.403137207,3.74946737289,0.0,nan,nan,nan,nan
1626204433493461214,987,1626204433454854488,camera_color_optical_frame,390.072296143,3.73701405525,0.0,-58.2546691895,29.2379741669,162.352371216,0.0887012705207
1626204433586541098,988,1626204433547233343,camera_color_optical_frame,364.666809082,3.73336648941,0.0,-75.6153259277,42.9980659485,150.604736328,0.0601116232574
1626204433681000858,989,1626204433643920660,camera_color_optical_frame,347.680938721,10.0522222519,0.0,-78.2472839355,8.27446269989,155.582077026,0.0634485781193
1626204433777425435,990,1626204433736541986,camera_color_optical_frame,328.952972412,11.3662214279,0.0,-80.9695358276,7.02046203613,154.099914551,0.0614554621279
1626204433870117061,991,1626204433832641363,camera_color_optical_frame,335.509887695,11.3646764755,0.0,-82.6216964722,-5.61759662628,153.189254761,0.0618706941605
1626204433970707695,992,1626204433924281597,camera_color_optical_frame,334.185028076,11.3548650742,0.0,-82.5418395996,-5.15785264969,153.254867554,0.0619149059057
1626204434071905738,993,1626204434027366399,camera_color_optical_frame,333.758087158,11.3498430252,0.0,-82.7137908936,-4.5901722908,153.172119141,0.0616677999496
1626204434162127173,994,1626204434119836330,camera_color_optical_frame,320.29208374,10.9053478241,0.0,-79.9358215332,7.33731079102,154.680450439,0.0622515119612
1626204434257070618,995,1626204434214018821,camera_color_optical_frame,323.309082031,10.0455579758,0.0,-80.4736328125,9.77736091614,154.221206665,0.0613899156451
1626204434352537584,996,1626204434314016819,camera_color_optical_frame,354.657592773,10.4777889252,0.0,-1.13532042503,36.2511291504,172.0703125,0.204657748342
1626204434446668807,997,1626204434407702922,camera_color_optical_frame,395.627471924,7.49831914902,0.0,-12.1085987091,47.4925460815,168.535049438,0.14234572649
1626204434547910451,998,1626204434510122299,camera_color_optical_frame,401.618011475,7.88782644272,0.0,12.2065553665,39.6860160828,170.749832153,0.151647374034
1626204434639589388,999,1626204434598218202,camera_color_optical_frame,414.909118652,3.42076683044,0.0,74.7048492432,26.0734291077,155.334274292,0.0890975594521
1626204434725261469,1000,1626204434685541391,camera_color_optical_frame,425.128295898,7.01286935806,0.0,8.36015319824,45.1034698486,169.511627197,0.142739638686
1626204434813437406,1001,1626204434771960496,camera_color_optical_frame,432.080230713,7.01857185364,0.0,19.5034809113,39.3925590515,170.073028564,0.137963667512
1626204434901454278,1002,1626204434864648342,camera_color_optical_frame,438.165740967,7.01166725159,0.0,18.9395198822,42.0347938538,169.441635132,0.123231761158
1626204434992615372,1003,1626204434956570863,camera_color_optical_frame,463.398773193,7.42859554291,0.0,22.2228660583,40.7626037598,169.344116211,0.1265668571
1626204435080660840,1004,1626204435046146631,camera_color_optical_frame,470.370849609,7.4289188385,0.0,16.2516727448,48.8472442627,167.717788696,0.104746736586
1626204435173649439,1005,1626204435138034105,camera_color_optical_frame,473.861175537,7.87202358246,0.0,0.743328630924,40.0979766846,-171.124435425,0.12721914053
1626204435262651379,1006,1626204435226760149,camera_color_optical_frame,480.794586182,3.74196910858,0.0,36.1420402527,7.80321407318,171.903747559,0.230379968882
1626204435353445822,1007,1626204435317603349,camera_color_optical_frame,484.288726807,3.73635554314,0.0,39.8342018127,3.78460216522,171.148117065,0.228727132082
1626204435453593888,1008,1626204435413029670,camera_color_optical_frame,490.354888916,5.70376348495,0.0,30.724357605,31.5009860992,170.059555054,0.147315874696
1626204435536250375,1009,1626204435501909255,camera_color_optical_frame,492.126495361,8.74258613586,0.0,17.6727409363,51.7420501709,166.592910767,0.0968758687377
1626204435622200952,1010,1626204435585986852,camera_color_optical_frame,493.011138916,8.31981945038,0.0,22.7109050751,49.7197494507,166.598648071,0.0898545011878
1626204435723236553,1011,1626204435677330732,camera_color_optical_frame,496.025054932,9.17335987091,0.0,3.39846992493,44.9102630615,-169.758972168,0.129411518574
1626204435817716010,1012,1626204435778548240,camera_color_optical_frame,429.577148438,39.6711502075,0.0,111.134674072,24.9087924957,129.201522827,0.032710403204
1626204435905311855,1013,1626204435867774248,camera_color_optical_frame,411.623504639,54.0376663208,0.0,108.000213623,19.142829895,133.174865723,0.0345692262053
1626204436001890870,1014,1626204435963572263,camera_color_optical_frame,373.424865723,78.4854125977,0.0,106.445579529,18.3951873779,134.670135498,0.0355919972062
1626204436093623912,1015,1626204436056275367,camera_color_optical_frame,332.672821045,104.93396759,0.0,104.241989136,13.7114067078,137.175415039,0.0369712635875
1626204436186930306,1016,1626204436148818969,camera_color_optical_frame,321.563781738,113.385757446,0.0,109.78377533,12.7808876038,132.401626587,0.0323084592819
1626204436274826455,1017,1626204436239826202,camera_color_optical_frame,310.162078857,119.605499268,0.0,107.842781067,11.3590736389,134.299163818,0.0336778759956
1626204436361879105,1018,1626204436327831983,camera_color_optical_frame,300.021453857,122.554145813,0.0,109.305198669,13.6932106018,132.738861084,0.0327717214823
1626204436455012840,1019,1626204436414626836,camera_color_optical_frame,291.875305176,127.432914734,0.0,105.092308044,7.92842197418,136.961776733,0.035549685359
1626204436552082250,1020,1626204436509442329,camera_color_optical_frame,282.413818359,129.401748657,0.0,108.022850037,12.1130104065,-134.065612793,0.0336214601994
1626204436646615637,1021,1626204436604620456,camera_color_optical_frame,252.728240967,134.972167969,0.0,99.4089584351,9.29221439362,-141.493179321,0.0408713407815
1626204436737082146,1022,1626204436700928449,camera_color_optical_frame,245.86164856,143.75428772,0.0,100.45905304,12.4987335205,140.393539429,0.0403162203729
1626204436830479272,1023,1626204436793952703,camera_color_optical_frame,247.508865356,148.631103516,0.0,105.443405151,19.1254920959,135.428848267,0.0365861169994
1626204436925317246,1024,1626204436885868072,camera_color_optical_frame,248.499725342,151.567565918,0.0,106.205001831,21.6430950165,-134.345230103,0.0350223965943
1626204437017367611,1025,1626204436977886676,camera_color_optical_frame,249.808319092,152.22869873,0.0,105.602600098,16.3630027771,135.692199707,0.0361154787242
1626204437099693403,1026,1626204437065030574,camera_color_optical_frame,255.329666138,152.884277344,0.0,102.479232788,15.3797836304,138.445236206,0.0387885868549
1626204437190312822,1027,1626204437151835203,camera_color_optical_frame,256.949920654,153.530853271,0.0,102.032539368,21.0107345581,-137.990066528,0.0394480973482
1626204437285436054,1028,1626204437246264219,camera_color_optical_frame,261.22543335,151.892501831,0.0,102.947463989,25.1248397827,-136.466644287,0.0380868315697
1626204437377732387,1029,1626204437339869499,camera_color_optical_frame,261.873046875,152.243881226,0.0,103.573829651,25.6271896362,-135.836517334,0.0340652018785
1626204437469272786,1030,1626204437432748794,camera_color_optical_frame,263.821289062,154.526092529,0.0,99.7208404541,26.3758010864,-138.839248657,0.0373866520822
1626204437562001591,1031,1626204437524365425,camera_color_optical_frame,266.107574463,152.879684448,0.0,104.812965393,25.0333194733,-134.902862549,0.0328840650618
1626204437658519036,1032,1626204437617193222,camera_color_optical_frame,267.083557129,153.534103394,0.0,104.972160339,23.0647735596,135.154312134,0.0346344821155
1626204437743240256,1033,1626204437704836606,camera_color_optical_frame,268.704101562,152.866622925,0.0,106.194908142,22.2124671936,134.251068115,0.0335227027535
1626204437831330344,1034,1626204437794445037,camera_color_optical_frame,269.365600586,152.216842651,0.0,106.687683105,25.4854030609,133.169570923,0.0309284068644
1626204437935103537,1035,1626204437886218786,camera_color_optical_frame,269.692687988,151.916244507,0.0,107.054779053,23.4848575592,133.250686646,0.0320758633316
1626204438029723568,1036,1626204437994094848,camera_color_optical_frame,287.604003906,56.6179733276,0.0,105.18523407,42.5554122925,129.614501953,0.0262200962752
1626204438120699712,1037,1626204438083341598,camera_color_optical_frame,290.578552246,49.7831802368,0.0,109.536834717,28.3425693512,129.927337646,0.0322146974504
1626204438212513347,1038,1626204438172484159,camera_color_optical_frame,295.801391602,43.255241394,0.0,108.432197571,36.8490486145,128.582427979,0.0264984350652
1626204438301328590,1039,1626204438263922691,camera_color_optical_frame,305.578460693,32.8175010681,0.0,112.340156555,13.0620689392,129.972915649,0.0306090954691
1626204438399980215,1040,1626204438358273029,camera_color_optical_frame,306.26171875,29.8885040283,0.0,109.627426147,14.0512390137,132.402542114,0.032610796392
1626204438489394687,1041,1626204438450437545,camera_color_optical_frame,310.472961426,29.532459259,0.0,105.154029846,6.76495838165,136.978439331,0.0353440605104
1626204438579325964,1042,1626204438544274330,camera_color_optical_frame,306.349060059,34.4275398254,0.0,105.775230408,-6.753947258,136.448059082,0.0339955314994
1626204438668115754,1043,1626204438633821725,camera_color_optical_frame,317.994262695,27.4148616791,0.0,100.421875,-1.47146892548,141.02947998,0.038524646312
1626204438758592574,1044,1626204438720089912,camera_color_optical_frame,319.953948975,30.5050506592,0.0,101.750442505,-2.90472698212,139.945510864,0.0371214710176
1626204438848790960,1045,1626204438808002471,camera_color_optical_frame,327.108398438,34.0849075317,0.0,95.8573455811,-7.91220378876,144.274246216,0.0420216731727
1626204438943098310,1046,1626204438908643484,camera_color_optical_frame,348.327026367,54.6476669312,0.0,94.3956832886,-8.47777080536,145.302841187,0.0434370525181
1626204439037393890,1047,1626204438999993085,camera_color_optical_frame,351.928253174,57.2553863525,0.0,90.5368728638,-16.9361000061,147.191879272,0.0462793782353
1626204439126342054,1048,1626204439087047576,camera_color_optical_frame,354.538269043,61.8524055481,0.0,93.7192993164,-12.6703147888,145.44984436,0.0434911251068
1626204439209509917,1049,1626204439171550750,camera_color_optical_frame,356.490509033,66.7380828857,0.0,93.0207748413,-10.8632926941,146.107192993,0.0445101968944
1626204439302321017,1050,1626204439262787580,camera_color_optical_frame,359.421051025,69.3668518066,0.0,91.729095459,-11.1656455994,146.984176636,0.0458816029131
1626204439393178210,1051,1626204439353294610,camera_color_optical_frame,360.09161377,72.6055908203,0.0,94.5605010986,-7.99769115448,145.214233398,0.0433214046061
1626204439486820718,1052,1626204439448554277,camera_color_optical_frame,363.660430908,76.2097930908,0.0,93.0489273071,-8.7830991745,146.242233276,0.0447547733784
1626204439576068342,1053,1626204439540926456,camera_color_optical_frame,365.289245605,79.1231231689,0.0,91.6231842041,-11.1649589539,147.057418823,0.0459628216922
1626204439666644945,1054,1626204439632112741,camera_color_optical_frame,366.270019531,85.6341552734,0.0,96.9096679688,-6.38727855682,143.577346802,0.0411888249218
1626204439766750871,1055,1626204439721743822,camera_color_optical_frame,369.53314209,88.9139251709,0.0,97.9920120239,-0.783793449402,142.916885376,0.0409379974008
1626204439869303753,1056,1626204439822504520,camera_color_optical_frame,447.311706543,146.237045288,0.0,110.158081055,57.1213493347,118.341133118,0.0360704995692
1626204439949679321,1057,1626204439912482023,camera_color_optical_frame,449.452392578,150.147140503,0.0,100.821922302,79.8700637817,112.845527649,0.0273733511567
1626204440040943019,1058,1626204440002796649,camera_color_optical_frame,449.876495361,152.327911377,0.0,92.0903930664,85.2359924316,116.699813843,0.0292484685779
1626204440129962151,1059,1626204440088989019,camera_color_optical_frame,447.748748779,151.905197144,0.0,85.776512146,84.4790267944,122.497146606,0.0305510088801
1626204440226708126,1060,1626204440187115430,camera_color_optical_frame,445.127960205,151.001998901,0.0,88.9136581421,81.3477172852,122.36693573,0.0302602797747
1626204440321292555,1061,1626204440283532142,camera_color_optical_frame,443.40838623,148.863067627,0.0,87.2748184204,87.2117996216,119.156929016,0.0314656160772
1626204440416609415,1062,1626204440378589391,camera_color_optical_frame,442.530792236,146.21887207,0.0,87.4139709473,83.6846160889,121.816848755,0.0373194143176
1626204440504189275,1063,1626204440470277070,camera_color_optical_frame,441.657318115,146.271972656,0.0,85.3884506226,91.9495773315,116.699356079,0.0325237214565
1626204440611352309,1064,1626204440570042848,camera_color_optical_frame,439.894470215,143.186706543,0.0,85.2013244629,89.4072875977,119.016731262,0.0348153561354
1626204440690845145,1065,1626204440654722929,camera_color_optical_frame,436.415802002,140.143768311,0.0,67.4388961792,102.243606567,120.180221558,0.0290903225541
1626204440776423523,1066,1626204440741253852,camera_color_optical_frame,433.387817383,138.424072266,0.0,72.315788269,101.308021545,117.894439697,0.0286967530847
1626204440872781747,1067,1626204440828687667,camera_color_optical_frame,432.504364014,136.691574097,0.0,75.2865447998,99.7772216797,117.278785706,0.0292612817138
1626204440962513564,1068,1626204440924358129,camera_color_optical_frame,428.993560791,133.609329224,0.0,83.2531051636,95.0008087158,115.69657135,0.0307146795094
1626204441057156683,1069,1626204441017275810,camera_color_optical_frame,427.298980713,131.885742188,0.0,73.1516952515,104.363014221,114.316055298,0.0264263227582
1626204441155196282,1070,1626204441113559961,camera_color_optical_frame,419.455963135,129.697570801,0.0,78.3756637573,102.698471069,112.129249573,0.026006238535
1626204441243980285,1071,1626204441208288908,camera_color_optical_frame,415.112060547,128.394470215,0.0,67.124786377,101.125030518,121.417373657,0.0303185936064
1626204441343043394,1072,1626204441302048921,camera_color_optical_frame,411.620391846,126.227828979,0.0,74.7351989746,102.17741394,115.364059448,0.0276315547526
1626204441435559066,1073,1626204441397457599,camera_color_optical_frame,409.410491943,122.753898621,0.0,74.7050476074,104.840538025,112.707511902,0.0257058553398
1626204441529803759,1074,1626204441490142107,camera_color_optical_frame,407.709075928,121.428764343,0.0,72.864906311,105.765846252,113.083770752,0.0253316927701
1626204441627389025,1075,1626204441585966348,camera_color_optical_frame,405.531768799,119.714027405,0.0,71.5752716064,102.979003906,116.785812378,0.0272771473974
1626204441726889697,1076,1626204441687335014,camera_color_optical_frame,402.953125,118.400306702,0.0,73.0264282227,101.330711365,117.386367798,0.0282832235098
1626204441822019805,1077,1626204441783220529,camera_color_optical_frame,401.607696533,117.066757202,0.0,75.7693557739,99.8781661987,116.838226318,0.0288606099784
1626204441916657570,1078,1626204441879199743,camera_color_optical_frame,399.897796631,111.899749756,0.0,77.1464385986,101.549499512,114.213928223,0.0272228531539
1626204442006102928,1079,1626204441970398902,camera_color_optical_frame,398.177062988,109.294013977,0.0,78.2039794922,103.646881104,111.292015076,0.0252933520824
1626204442105855554,1080,1626204442061276435,camera_color_optical_frame,398.149261475,109.250282288,0.0,77.994430542,103.253143311,111.859039307,0.0255490839481
1626204442196965200,1081,1626204442158296108,camera_color_optical_frame,395.960754395,105.796005249,0.0,77.6198730469,93.8429946899,120.963226318,0.0329347625375
1626204442280506002,1082,1626204442242366790,camera_color_optical_frame,393.807037354,100.578193665,0.0,69.9594955444,106.149757385,114.70652771,0.0255827307701
1626204442377601824,1083,1626204442333730220,camera_color_optical_frame,390.769500732,98.8470687866,0.0,77.3060684204,101.009513855,114.624160767,0.0274932477623
1626204442470963492,1084,1626204442428712129,camera_color_optical_frame,388.608001709,98.775718689,0.0,79.5862121582,101.84677887,112.045166016,0.0262412652373
1626204442562205561,1085,1626204442522896289,camera_color_optical_frame,388.54675293,97.5180358887,0.0,77.7646026611,101.13608551,114.155860901,0.0272788442671
1626204442657052563,1086,1626204442618747472,camera_color_optical_frame,386.803009033,95.7618103027,0.0,84.1593780518,89.8468856812,119.470489502,0.0346597991884
1626204442748236884,1087,1626204442712621450,camera_color_optical_frame,382.489746094,94.4821853638,0.0,81.2120819092,92.8404846191,119.194282532,0.0334065817297
1626204442844647438,1088,1626204442804680585,camera_color_optical_frame,381.171722412,93.6087112427,0.0,81.9753417969,90.10597229,120.927993774,0.0352236144245
1626204442939243039,1089,1626204442900094270,camera_color_optical_frame,380.749389648,92.7442169189,0.0,80.0581512451,93.4219207764,119.555328369,0.0330449715257
1626204443033911202,1090,1626204442992716312,camera_color_optical_frame,371.601928711,91.8708724976,0.0,85.5420227051,89.6831893921,118.514877319,0.0329005420208
1626204443111486005,1091,1626204443077352762,camera_color_optical_frame,368.561553955,91.8827133179,0.0,83.342086792,89.3096847534,120.546775818,0.0354674495757
1626204443204120696,1092,1626204443164083719,camera_color_optical_frame,363.747528076,91.0004653931,0.0,86.3283920288,86.598236084,120.410102844,0.0322143957019
1626204443300021893,1093,1626204443256093978,camera_color_optical_frame,361.143157959,90.9805908203,0.0,82.3000259399,86.5819244385,123.508728027,0.0338106676936
1626204443395588214,1094,1626204443354527950,camera_color_optical_frame,355.523223877,90.5534515381,0.0,91.6276473999,81.896484375,119.714179993,0.0326205305755
1626204443486425709,1095,1626204443447709798,camera_color_optical_frame,352.051574707,88.8277282715,0.0,97.8928833008,78.8548736572,116.437026978,0.0272950772196
1626204443590715127,1096,1626204443549380064,camera_color_optical_frame,344.638061523,89.2824325562,0.0,100.942398071,81.1703033447,111.69229126,0.0237186755985
1626204443679624111,1097,1626204443642244338,camera_color_optical_frame,336.36340332,89.2681350708,0.0,108.470855713,78.5895385742,105.759780884,0.0213556922972
1626204443772428822,1098,1626204443738081455,camera_color_optical_frame,329.399108887,93.1450958252,0.0,119.310592651,54.7285881042,109.426048279,0.0238477159292
1626204443873485747,1099,1626204443832315921,camera_color_optical_frame,326.471801758,95.7734680176,0.0,95.4644012451,67.4888534546,126.178115845,0.0233654715121
1626204443973971392,1100,1626204443926482200,camera_color_optical_frame,319.627960205,98.3837966919,0.0,95.6815338135,65.0948867798,127.383750916,0.0255247168243
1626204444061303801,1101,1626204444021982669,camera_color_optical_frame,315.690582275,100.017364502,0.0,81.1832427979,56.1094093323,142.388961792,0.0630564540625
1626204444148339724,1102,1626204444111155748,camera_color_optical_frame,303.28604126,100.674255371,0.0,85.7867279053,58.6930236816,138.182067871,0.0580908693373
1626204444239741813,1103,1626204444199342250,camera_color_optical_frame,281.120239258,96.7543334961,0.0,95.297203064,75.585105896,-121.131141663,0.0257390215993
1626204444333234063,1104,1626204444291367530,camera_color_optical_frame,273.601806641,96.4340362549,0.0,99.6240539551,71.3316650391,-120.127662659,0.0242184009403
1626204444418115187,1105,1626204444379731416,camera_color_optical_frame,269.678924561,97.0672454834,0.0,94.4037322998,74.6688766479,-122.527931213,0.0256219115108
1626204444507396323,1106,1626204444471776485,camera_color_optical_frame,267.072479248,93.820022583,0.0,97.9034729004,70.9470214844,-121.933891296,0.0243678726256
1626204444598693242,1107,1626204444563633441,camera_color_optical_frame,264.790100098,93.1838684082,0.0,100.478591919,69.7327880859,-120.378974915,0.0242488607764
1626204444687086203,1108,1626204444651434659,camera_color_optical_frame,260.868652344,92.1890411377,0.0,103.058776855,68.9632568359,-118.437576294,0.0244693420827
1626204444769641340,1109,1626204444736319541,camera_color_optical_frame,257.617431641,91.5157089233,0.0,104.694145203,67.4750366211,-117.796386719,0.0226762853563
1626204444862540572,1110,1626204444823163509,camera_color_optical_frame,255.315826416,90.8554382324,0.0,106.160820007,70.7955780029,-114.125320435,0.0220612231642
1626204444946809238,1111,1626204444912531614,camera_color_optical_frame,251.414352417,90.2291641235,0.0,108.670211792,69.177406311,-112.597610474,0.0217544659972
1626204445044291138,1112,1626204444998274326,camera_color_optical_frame,249.448455811,89.8882293701,0.0,106.239028931,68.6060028076,-115.517906189,0.0243586599827
1626204445133094882,1113,1626204445096755266,camera_color_optical_frame,242.617935181,86.9590606689,0.0,106.650100708,65.7897033691,-116.905128479,0.0264713149518
1626204445225308225,1114,1626204445187332391,camera_color_optical_frame,235.763809204,85.9865875244,0.0,100.443389893,64.0178375244,-123.87853241,0.0280962754041
1626204445316378923,1115,1626204445279376745,camera_color_optical_frame,231.225097656,70.740852356,0.0,84.1887283325,73.9893188477,-130.94442749,0.038607288152
1626204445415584520,1116,1626204445369342327,camera_color_optical_frame,226.615737915,83.7110061646,0.0,100.564987183,63.6002540588,-124.007492065,0.0293704494834
1626204445514952053,1117,1626204445478008270,camera_color_optical_frame,214.284851074,74.1108627319,0.0,88.2107391357,69.555267334,-130.703430176,0.0402401350439
1626204445613138112,1118,1626204445572012662,camera_color_optical_frame,212.203125,75.1492462158,0.0,79.2073516846,74.3736419678,-134.108657837,0.0385694392025
1626204445703592216,1119,1626204445665987491,camera_color_optical_frame,211.935592651,75.6703262329,0.0,82.8043212891,66.4592590332,-136.288101196,0.0427196212113
1626204445803512224,1120,1626204445758749485,camera_color_optical_frame,211.672241211,73.5909118652,0.0,77.535446167,70.4552230835,-137.492950439,0.0432786867023
1626204445893051718,1121,1626204445855638504,camera_color_optical_frame,210.358154297,75.1500015259,0.0,86.9659576416,73.274230957,-129.369384766,0.0374943763018
1626204445985745450,1122,1626204445946529388,camera_color_optical_frame,209.576248169,74.3833084106,0.0,87.9737167358,66.8033752441,-132.459197998,0.0426967218518
1626204446085910548,1123,1626204446047032356,camera_color_optical_frame,210.361068726,77.2690353394,0.0,88.203918457,70.45728302,-130.172119141,0.0387687832117
1626204446185274812,1124,1626204446150776863,camera_color_optical_frame,213.256988525,88.7547149658,0.0,83.778717041,64.4073410034,-136.719161987,0.047105293721
1626204446282778787,1125,1626204446242648839,camera_color_optical_frame,213.510803223,89.5320205688,0.0,82.6185913086,63.331451416,-138.051818848,0.047821059823
1626204446379472997,1126,1626204446343224048,camera_color_optical_frame,216.36756897,91.8598480225,0.0,78.4960861206,66.9370956421,-138.830154419,0.0470097064972
1626204446471683936,1127,1626204446433594226,camera_color_optical_frame,216.61781311,90.830696106,0.0,76.857208252,64.676574707,-141.016235352,0.0502188540995
1626204446573510412,1128,1626204446531472921,camera_color_optical_frame,229.704162598,96.828994751,0.0,80.6092681885,64.8251953125,138.598709106,0.0510349534452
1626204446660853954,1129,1626204446624195337,camera_color_optical_frame,234.624557495,97.3317718506,0.0,88.9576873779,66.9579467773,-131.642044067,0.0448387004435
1626204446759232092,1130,1626204446716173171,camera_color_optical_frame,233.159408569,110.78742218,0.0,84.4210357666,65.4209976196,-135.744613647,0.0443528443575
1626204446859684285,1131,1626204446819459915,camera_color_optical_frame,171.500793457,111.425140381,0.0,nan,nan,nan,nan
1626204446955832731,1132,1626204446914464950,camera_color_optical_frame,236.726470947,114.691902161,0.0,91.9823455811,57.9426727295,-134.055511475,0.0411995388567
1626204447045288850,1133,1626204447004942655,camera_color_optical_frame,237.370315552,114.062927246,0.0,93.5925140381,49.0558280945,-136.723800659,0.0407130271196
1626204447139810668,1134,1626204447099820613,camera_color_optical_frame,234.794158936,114.697006226,0.0,88.7022476196,55.9120903015,-137.418121338,0.042299747467
1626204447244031764,1135,1626204447202528715,camera_color_optical_frame,239.048583984,115.353507996,0.0,95.6322021484,40.0306015015,138.407470703,0.0432110391557
1626204447337787557,1136,1626204447296373605,camera_color_optical_frame,238.030639648,118.579826355,0.0,89.6477661133,42.6440467834,141.935913086,0.0497486367822
1626204447428191696,1137,1626204447391130924,camera_color_optical_frame,236.746795654,118.934173584,0.0,98.8450698853,46.436882019,133.605834961,0.0401156358421
1626204447529095633,1138,1626204447486576080,camera_color_optical_frame,235.758102417,119.248916626,0.0,88.7505340576,41.3060340881,-142.995178223,0.0619819574058
1626204447621046793,1139,1626204447583330154,camera_color_optical_frame,235.438476562,120.581741333,0.0,91.7323760986,41.8172912598,-140.727478027,0.0554065965116
1626204447714028228,1140,1626204447675221204,camera_color_optical_frame,236.743438721,119.917312622,0.0,77.1940765381,48.4976730347,-147.840881348,0.0676179230213
1626204447809073313,1141,1626204447769159317,camera_color_optical_frame,236.745635986,119.592308044,0.0,86.9101867676,40.3073806763,144.554946899,0.0618042014539
1626204447899182696,1142,1626204447862811803,camera_color_optical_frame,239.363754272,126.445587158,0.0,79.0690002441,66.8443984985,-138.519042969,0.0428389459848
1626204447984701869,1143,1626204447949690818,camera_color_optical_frame,242.274810791,124.485900879,0.0,74.4348831177,49.6423301697,-148.983306885,0.0624826140702
1626204448074540788,1144,1626204448036929130,camera_color_optical_frame,242.609558105,126.448638916,0.0,80.8643493652,58.0148277283,-141.742462158,0.0463132858276
1626204448170743737,1145,1626204448130317926,camera_color_optical_frame,244.884414673,121.235458374,0.0,73.8160324097,35.9025115967,153.623016357,0.0740325078368
1626204448267587308,1146,1626204448223561525,camera_color_optical_frame,247.185852051,125.781280518,0.0,70.8928070068,51.1447486877,150.328353882,0.06144252792
1626204448351636353,1147,1626204448313922882,camera_color_optical_frame,248.158569336,123.832809448,0.0,88.2649688721,50.924495697,139.856735229,0.0460611581802
1626204448438483480,1148,1626204448402605295,camera_color_optical_frame,251.393997192,123.84021759,0.0,91.6954956055,50.5882072449,137.527008057,0.0416559576988
1626204448533195036,1149,1626204448495316267,camera_color_optical_frame,252.394210815,117.651107788,0.0,90.9802246094,45.1486167908,140.126678467,0.043625343591
1626204448627944225,1150,1626204448588975191,camera_color_optical_frame,250.444274902,112.102005005,0.0,87.7240371704,58.0852279663,137.114807129,0.0295810867101
1626204448722675340,1151,1626204448682879447,camera_color_optical_frame,281.754577637,89.256980896,0.0,79.4278640747,33.3762779236,151.132614136,0.0765946209431
1626204448820571061,1152,1626204448778547763,camera_color_optical_frame,281.085296631,69.9940414429,0.0,105.495307922,12.5164146423,136.237136841,0.0357799753547
1626204448905502617,1153,1626204448864003419,camera_color_optical_frame,292.523834229,46.5178604126,0.0,91.6416244507,-3.66770458221,147.46307373,0.0472320914268
1626204448991912726,1154,1626204448954698324,camera_color_optical_frame,292.842132568,45.2949638367,0.0,84.0533905029,-21.7742042542,150.705581665,0.0540234223008
1626204449080755533,1155,1626204449042069673,camera_color_optical_frame,301.562225342,33.5749092102,0.0,80.5257873535,-27.1129875183,151.875839233,0.0575385205448
1626204449170626888,1156,1626204449133860588,camera_color_optical_frame,311.569488525,30.094783783,0.0,71.0688476562,-27.0393447876,157.032440186,0.071736343205
1626204449265605316,1157,1626204449224142789,camera_color_optical_frame,314.606079102,30.0723457336,0.0,73.5699157715,-27.1369056702,155.732131958,0.0675569474697
1626204449360923247,1158,1626204449320855855,camera_color_optical_frame,286.767120361,39.4233779907,0.0,62.3608093262,-17.7766685486,162.501037598,0.0912918820977
1626204449452133797,1159,1626204449416290283,camera_color_optical_frame,336.816009521,23.3428707123,0.0,68.9013748169,-32.497089386,156.956390381,0.0741120353341
1626204449549963363,1160,1626204449508735179,camera_color_optical_frame,302.877441406,32.24426651,0.0,68.382522583,7.27093505859,160.704086304,0.0810815393925
1626204449636080426,1161,1626204449608247995,camera_color_optical_frame,315.507080078,40.5274620056,0.0,63.5342102051,11.484246254,162.625076294,0.0921564549208
1626204449729169539,1162,1626204449691557168,camera_color_optical_frame,321.573425293,39.6571044922,0.0,63.5500030518,13.6906642914,162.428894043,0.0828800052404
1626204449817583742,1163,1626204449780429363,camera_color_optical_frame,326.391601562,35.752166748,0.0,60.4196891785,16.6573162079,163.442260742,0.0834902226925
1626204449907853070,1164,1626204449869707822,camera_color_optical_frame,328.546844482,33.5623703003,0.0,63.6342697144,14.0305118561,162.360183716,0.0810154080391
1626204450001776942,1165,1626204449963195085,camera_color_optical_frame,326.814422607,40.097492218,0.0,67.9574661255,6.7616109848,160.928359985,0.0857243537903
1626204450095537090,1166,1626204450056693553,camera_color_optical_frame,314.618347168,34.8792724609,0.0,65.8900527954,3.36961078644,161.995758057,0.0894275084138
1626204450187128687,1167,1626204450151148080,camera_color_optical_frame,301.540466309,25.296421051,0.0,68.2973098755,3.99937915802,160.871261597,0.0845352038741
1626204450287417446,1168,1626204450246953964,camera_color_optical_frame,285.030212402,14.1875276566,0.0,64.8063812256,3.63637256622,162.47303772,0.0917900800705
1626204450372863263,1169,1626204450334329605,camera_color_optical_frame,183.193344116,14.8123941422,0.0,nan,nan,nan,nan
1626204450481158897,1170,1626204450438910722,camera_color_optical_frame,300.080413818,3.42291259766,0.0,62.8113098145,30.6399173737,160.168746948,0.0529875829816
1626204450588319981,1171,1626204450545855760,camera_color_optical_frame,274.564544678,3.5258231163,0.0,92.9604415894,13.9527721405,145.858810425,0.0485867895186
1626204450680913895,1172,1626204450642015218,camera_color_optical_frame,240.000854492,7.34704303741,0.0,73.6965103149,-14.6388130188,157.513061523,0.0703483000398
1626204450774627819,1173,1626204450733851671,camera_color_optical_frame,257.617858887,6.57522201538,0.0,81.0622558594,-0.270812064409,154.22277832,0.0605129413307
1626204450859595842,1174,1626204450822908163,camera_color_optical_frame,252.373260498,7.44542264938,0.0,83.2740707397,-2.09585857391,152.895812988,0.0571347586811
1626204450949389316,1175,1626204450912865161,camera_color_optical_frame,248.492004395,10.271654129,0.0,98.7266616821,-1.09381389618,142.353286743,0.0399803072214
1626204451046033161,1176,1626204451005691289,camera_color_optical_frame,242.931228638,16.3204250336,0.0,109.185562134,18.0991477966,-132.262466431,0.0346162542701
1626204451131195062,1177,1626204451095697164,camera_color_optical_frame,240.980239868,19.9114170074,0.0,99.7500534058,17.2996063232,-140.389160156,0.0441307574511
1626204451234130858,1178,1626204451187695264,camera_color_optical_frame,241.287414551,25.1148109436,0.0,94.5797348022,22.5946159363,-143.48638916,0.0524839200079
1626204451328404834,1179,1626204451291140317,camera_color_optical_frame,231.015197754,52.1712417603,0.0,63.7691879272,87.2448654175,-134.632568359,0.0416321009398
1626204451426304718,1180,1626204451384805917,camera_color_optical_frame,231.244186401,68.6288757324,0.0,9.99370479584,89.2746276855,-148.74168396,0.0490887537599
1626204451525102280,1181,1626204451480862140,camera_color_optical_frame,232.291412354,74.9063034058,0.0,7.5052986145,94.9217147827,-144.982040405,0.0424126386642
1626204451622966541,1182,1626204451583336353,camera_color_optical_frame,232.569946289,79.0839385986,0.0,0.106047689915,92.619468689,-146.83531189,0.0447404049337
1626204451712949864,1183,1626204451679393768,camera_color_optical_frame,248.801742554,98.7446517944,0.0,-37.7141265869,119.8334198,-116.525985718,0.0255307611078
1626204451812811377,1184,1626204451769213199,camera_color_optical_frame,249.770248413,112.404556274,0.0,-46.0818138123,125.763214111,-105.771949768,0.0229258481413
1626204452008572630,1185,1626204451861406326,camera_color_optical_frame,247.850646973,117.656066895,0.0,-62.0303688049,124.283287048,-98.4237136841,0.0261255465448
1626204452082662775,1186,1626204452035510540,camera_color_optical_frame,240.648742676,121.536437988,0.0,-77.2049407959,106.744194031,-108.792915344,0.0408231057227
1626204452135168220,1187,1626204452099822044,camera_color_optical_frame,238.644058228,122.530700684,0.0,-74.6749420166,109.550140381,-107.65309906,0.0380958802998
